[
  { "name": "London", "lat": 51.5074, "lng": -0.1278 },
  { "name": "Manchester", "lat": 53.4808, "lng": -2.2426 },
  { "name": "Birmingham", "lat": 52.4862, "lng": -1.8904 },
  { "name": "Glasgow", "lat": 55.8642, "lng": -4.2518 },
  { "name": "Newcastle Upon Tyne", "lat": 54.9783, "lng": -1.6174 },
  { "name": "Liverpool", "lat": 53.4084, "lng": -2.9916 },
  { "name": "Bristol", "lat": 51.4545, "lng": -2.5879 },
  { "name": "Sheffield", "lat": 53.3811, "lng": -1.4701 },
  { "name": "Belfast", "lat": 54.5973, "lng": -5.9301 },
  { "name": "Edinburgh", "lat": 55.9533, "lng": -3.1883 },
  { "name": "Nottingham", "lat": 52.9548, "lng": -1.1581 },
  { "name": "Cardiff", "lat": 51.4816, "lng": -3.1791 },
  { "name": "Leicester", "lat": 52.6369, "lng": -1.1398 },
  { "name": "Aberdeen", "lat": 57.1497, "lng": -2.0943 },
  { "name": "Coventry", "lat": 52.4068, "lng": -1.5197 },
  { "name": "Southampton", "lat": 50.9097, "lng": -1.4043 },
  { "name": "Norwich", "lat": 52.6309, "lng": 1.2974 },
  { "name": "Swansea", "lat": 51.6214, "lng": -3.9436 },
  { "name": "Northampton", "lat": 52.2405, "lng": -0.9027 },
  { "name": "Peterborough", "lat": 52.5726, "lng": -0.2429 },
  { "name": "Reading", "lat": 51.4543, "lng": -0.9781 },
  { "name": "Leeds, West Yorkshire", "lat": 53.8008, "lng": -1.5491 },
  { "name": "Hull", "lat": 53.7457, "lng": -0.3367 },
  { "name": "Bradford, West Yorkshire", "lat": 53.7950, "lng": -1.7594 },
  { "name": "Doncaster", "lat": 53.5228, "lng": -1.1285 },
  { "name": "York", "lat": 53.9590, "lng": -1.0815 },
  { "name": "Bolton, Lancashire", "lat": 53.5785, "lng": -2.4299 },
  { "name": "Derby", "lat": 52.9225, "lng": -1.4746 },
  { "name": "Wolverhampton", "lat": 52.5862, "lng": -2.1280 },
  { "name": "Stoke On Trent", "lat": 53.0027, "lng": -2.1794 },
  { "name": "Luton, Bedfordshire", "lat": 51.8787, "lng": -0.4200 },
  { "name": "Milton Keynes", "lat": 52.0406, "lng": -0.7594 },
  { "name": "Brighton", "lat": 50.8225, "lng": -0.1372 },
  { "name": "Plymouth", "lat": 50.3755, "lng": -4.1427 },
  { "name": "Warrington, Cheshire", "lat": 53.3925, "lng": -2.5802 },
  { "name": "Cambridge, Cambridgeshire", "lat": 52.2053, "lng": 0.1218 },
  { "name": "Oxford", "lat": 51.7520, "lng": -1.2577 },
  { "name": "Exeter", "lat": 50.7184, "lng": -3.5339 },
  { "name": "Portsmouth", "lat": 50.8198, "lng": -1.0880 },
  { "name": "Middlesbrough", "lat": 54.5742, "lng": -1.2348 }
]
